[
  {
    "name": "Tangadan Falls",
    "description": "A majestic waterfall ideal for trekking and swimming.",
    "province": "La Union",
    "municipality": "San Gabriel",
    "barangay": "Bo. Milagrosa Sur",
    "lat": 16.6066,
    "lng": 120.3444,
    "photos": ["https://picsum.photos/id/1011/400/300"],
    "category": "Mountain"
  },
  {
    "name": "San Juan Beach",
    "description": "A famous surf spot known for its waves and vibrant beach life.",
    "province": "La Union",
    "municipality": "San Juan",
    "barangay": "Urbas",
    "lat": 16.6731,
    "lng": 120.3185,
    "photos": ["https://picsum.photos/id/1025/400/300"],
    "category": "Sea"
  },
  {
    "name": "Ma-Cho Temple",
    "description": "A Taoist temple with panoramic views of San Fernando Bay.",
    "province": "La Union",
    "municipality": "San Fernando City",
    "barangay": "Calmay",
    "lat": 16.6150,
    "lng": 120.3171,
    "photos": ["https://picsum.photos/id/1040/400/300"],
    "category": "Cultural"
  },
  {
    "name": "Poro Point Lighthouse",
    "description": "A scenic cliffside lighthouse offering views of the West Philippine Sea.",
    "province": "La Union",
    "municipality": "San Fernando City",
    "barangay": "Poro",
    "lat": 16.6451,
    "lng": 120.2934,
    "photos": ["https://picsum.photos/id/1056/400/300"],
    "category": "Sea"
  },
  {
    "name": "Baluarte Watch Tower",
    "description": "A historic Spanish watchtower used during the colonial era.",
    "province": "La Union",
    "municipality": "San Fernando City",
    "barangay": "Baluarte",
    "lat": 16.5619,
    "lng": 120.3398,
    "photos": ["https://picsum.photos/id/1036/400/300"],
    "category": "Historical"
  },
  {
    "name": "Luna Pebble Beach",
    "description": "A unique beach known for its natural round pebbles and sunset views.",
    "province": "La Union",
    "municipality": "Luna",
    "barangay": "Nasudi",
    "lat": 16.5983,
    "lng": 120.3672,
    "photos": ["https://picsum.photos/id/1084/400/300"],
    "category": "Sea"
  },
  {
    "name": "Gapuz Grapes Farm",
    "description": "A popular vineyard where tourists can pick grapes and learn farming.",
    "province": "La Union",
    "municipality": "Bacnotan",
    "barangay": "Gapuz",
    "lat": 16.6170,
    "lng": 120.3165,
    "photos": ["https://picsum.photos/id/1074/400/300"],
    "category": "Cultural"
  },
  {
    "name": "Immuki Island",
    "description": "A secluded island with natural pools and crystal-clear waters.",
    "province": "La Union",
    "municipality": "San Juan",
    "barangay": "Oday",
    "lat": 16.6629,
    "lng": 120.3794,
    "photos": ["https://picsum.photos/id/1003/400/300"],
    "category": "Adventure"
  },
  {
    "name": "Occalong Falls",
    "description": "A hidden gem waterfall nestled in the forests of Sudipen.",
    "province": "La Union",
    "municipality": "Sudipen",
    "barangay": "Occalong",
    "lat": 16.8300,
    "lng": 120.4750,
    "photos": ["https://picsum.photos/id/1018/400/300"],
    "category": "Mountain"
  },
  {
    "name": "Christ the Redeemer Statue",
    "description": "A religious statue perched on a hill, overlooking San Fernando.",
    "province": "La Union",
    "municipality": "San Fernando City",
    "barangay": "Balili",
    "lat": 16.6181,
    "lng": 120.3197,
    "photos": ["https://picsum.photos/id/1062/400/300"],
    "category": "Cultural"
  },
  {
    "name": "Bani Beach",
    "description": "A quiet coastal spot ideal for picnics and local seafood.",
    "province": "La Union",
    "municipality": "Bani",
    "barangay": "Poblacion",
    "lat": 16.5580,
    "lng": 120.3490,
    "photos": ["https://picsum.photos/id/1110/400/300"],
    "category": "Sea"
  },
  {
    "name": "Urbiztondo Beach",
    "description": "A laid-back beach popular with surfers.",
    "province": "La Union",
    "municipality": "San Juan",
    "barangay": "Urbiztondo",
    "lat": 16.6765,
    "lng": 120.3162,
    "photos": ["https://picsum.photos/id/1120/400/300"],
    "category": "Sea"
  },
  {
    "name": "San Fernando City Plaza",
    "description": "A historic park with gardens in the city center.",
    "province": "La Union",
    "municipality": "San Fernando City",
    "barangay": "Poblacion",
    "lat": 16.6177,
    "lng": 120.3156,
    "photos": ["https://picsum.photos/id/1130/400/300"],
    "category": "Cultural"
  },
  {
    "name": "La Union Botanical Garden",
    "description": "A lush green space for nature walks and relaxation.",
    "province": "La Union",
    "municipality": "San Fernando City",
    "barangay": "Botanical Garden",
    "lat": 16.5922,
    "lng": 120.3516,
    "photos": ["https://picsum.photos/id/1140/400/300"],
    "category": "Cultural"
  },
  {
    "name": "Manaoag Church",
    "description": "A famous pilgrimage shrine not far from San Fernando.",
    "province": "La Union",
    "municipality": "San Fernando City",
    "barangay": "Manaoag",
    "lat": 16.0666,
    "lng": 120.3333,
    "photos": ["https://picsum.photos/id/1150/400/300"],
    "category": "Historical"
  },
  {
    "name": "Blue Lagoon Beach",
    "description": "A stunning turquoise beach, great for swimming.",
    "province": "La Union",
    "municipality": "San Juan",
    "barangay": "Ma-Cho",
    "lat": 16.6760,
    "lng": 120.3180,
    "photos": ["https://picsum.photos/id/1160/400/300"],
    "category": "Sea"
  },
  {
    "name": "San Juan Surf Resort",
    "description": "A resort known for surf lessons and beachfront stays.",
    "province": "La Union",
    "municipality": "San Juan",
    "barangay": "Urbas",
    "lat": 16.6740,
    "lng": 120.3170,
    "photos": ["https://picsum.photos/id/1170/400/300"],
    "category": "Sea"
  },
  {
    "name": "Tangadan Spring Resort",
    "description": "Resort built around natural springs and falls.",
    "province": "La Union",
    "municipality": "San Gabriel",
    "barangay": "Bo. Milagrosa Sur",
    "lat": 16.6050,
    "lng": 120.3430,
    "photos": ["https://picsum.photos/id/1180/400/300"],
    "category": "Mountain"
  },
  {
    "name": "San Vicente Ferrer Church",
    "description": "An old church showcasing Spanish colonial architecture.",
    "province": "La Union",
    "municipality": "San Fernando City",
    "barangay": "Balili",
    "lat": 16.6120,
    "lng": 120.3140,
    "photos": ["https://picsum.photos/id/1190/400/300"],
    "category": "Historical"
  },
  {
    "name": "Sapdirag Beach",
    "description": "A lesser-known beach perfect for peaceful walks.",
    "province": "La Union",
    "municipality": "San Fernando City",
    "barangay": "Poblacion",
    "lat": 16.5900,
    "lng": 120.3560,
    "photos": ["https://picsum.photos/id/1200/400/300"],
    "category": "Sea"
  },
  {
    "name": "Paco Beach",
    "description": "A cove with rocky shores and clear waters.",
    "province": "La Union",
    "municipality": "San Fernando City",
    "barangay": "Sabangan",
    "lat": 16.6000,
    "lng": 120.3600,
    "photos": ["https://picsum.photos/id/1210/400/300"],
    "category": "Sea"
  },
  {
    "name": "Bacnotan Beach",
    "description": "A long stretch of dark sand with calm waves.",
    "province": "La Union",
    "municipality": "Bacnotan",
    "barangay": "Bacnotan",
    "lat": 16.5333,
    "lng": 120.3498,
    "photos": ["https://picsum.photos/id/1220/400/300"],
    "category": "Sea"
  },
  {
    "name": "Sudipen Cave",
    "description": "A cave system with underground rivers.",
    "province": "La Union",
    "municipality": "Sudipen",
    "barangay": "Occalong",
    "lat": 16.8400,
    "lng": 120.4800,
    "photos": ["https://picsum.photos/id/1230/400/300"],
    "category": "Adventure"
  },
  {
    "name": "San Fernando Baywalk",
    "description": "An evening destination for boardwalk strolls.",
    "province": "La Union",
    "municipality": "San Fernando City",
    "barangay": "Calamay",
    "lat": 16.6160,
    "lng": 120.3160,
    "photos": ["https://picsum.photos/id/1240/400/300"],
    "category": "Cultural"
  },
  {
    "name": "Ma-Cho Viewing Deck",
    "description": "An elevated deck overlooking the Maâ€‘Cho Temple and the sea.",
    "province": "La Union",
    "municipality": "San Fernando City",
    "barangay": "Calmay",
    "lat": 16.6155,
    "lng": 120.3168,
    "photos": ["https://picsum.photos/id/1250/400/300"],
    "category": "Cultural"
  }
]
